[
  {
    "id": 1,
    "name": "Madrid",
    "countryIso2": "ES",
    "latitude": 40.4168,
    "longitude": -3.7038
  },
  {
    "id": 2,
    "name": "Barcelona",
    "countryIso2": "ES",
    "latitude": 41.3851,
    "longitude": 2.1734
  },
  {
    "id": 3,
    "name": "Valencia",
    "countryIso2": "ES",
    "latitude": 39.4699,
    "longitude": -0.3763
  },
  {
    "id": 4,
    "name": "Seville",
    "countryIso2": "ES",
    "latitude": 37.3891,
    "longitude": -5.9845
  },

  {
    "id": 5,
    "name": "Rome",
    "countryIso2": "IT",
    "latitude": 41.9028,
    "longitude": 12.4964
  },
  {
    "id": 6,
    "name": "Milan",
    "countryIso2": "IT",
    "latitude": 45.4642,
    "longitude": 9.1900
  },
  {
    "id": 7,
    "name": "Bologna",
    "countryIso2": "IT",
    "latitude": 44.4949,
    "longitude": 11.3426
  },
  {
    "id": 8,
    "name": "Florence",
    "countryIso2": "IT",
    "latitude": 43.7696,
    "longitude": 11.2558
  },

  {
    "id": 9,
    "name": "Paris",
    "countryIso2": "FR",
    "latitude": 48.8566,
    "longitude": 2.3522
  },
  {
    "id": 10,
    "name": "Lyon",
    "countryIso2": "FR",
    "latitude": 45.7640,
    "longitude": 4.8357
  },
  {
    "id": 11,
    "name": "Bordeaux",
    "countryIso2": "FR",
    "latitude": 44.8378,
    "longitude": -0.5792
  },
  {
    "id": 12,
    "name": "Toulouse",
    "countryIso2": "FR",
    "latitude": 43.6047,
    "longitude": 1.4442
  },

  {
    "id": 13,
    "name": "Berlin",
    "countryIso2": "DE",
    "latitude": 52.5200,
    "longitude": 13.4050
  },
  {
    "id": 14,
    "name": "Munich",
    "countryIso2": "DE",
    "latitude": 48.1351,
    "longitude": 11.5820
  },
  {
    "id": 15,
    "name": "Hamburg",
    "countryIso2": "DE",
    "latitude": 53.5511,
    "longitude": 9.9937
  },
  {
    "id": 16,
    "name": "Heidelberg",
    "countryIso2": "DE",
    "latitude": 49.3988,
    "longitude": 8.6724
  },

  {
    "id": 17,
    "name": "Lisbon",
    "countryIso2": "PT",
    "latitude": 38.7223,
    "longitude": -9.1393
  },
  {
    "id": 18,
    "name": "Porto",
    "countryIso2": "PT",
    "latitude": 41.1579,
    "longitude": -8.6291
  },
  {
    "id": 19,
    "name": "Coimbra",
    "countryIso2": "PT",
    "latitude": 40.2033,
    "longitude": -8.4103
  },
  {
    "id": 20,
    "name": "Braga",
    "countryIso2": "PT",
    "latitude": 41.5454,
    "longitude": -8.4265
  },

  {
    "id": 21,
    "name": "Amsterdam",
    "countryIso2": "NL",
    "latitude": 52.3676,
    "longitude": 4.9041
  },
  {
    "id": 22,
    "name": "Utrecht",
    "countryIso2": "NL",
    "latitude": 52.0907,
    "longitude": 5.1214
  },
  {
    "id": 23,
    "name": "Groningen",
    "countryIso2": "NL",
    "latitude": 53.2194,
    "longitude": 6.5665
  },
  {
    "id": 24,
    "name": "Leiden",
    "countryIso2": "NL",
    "latitude": 52.1601,
    "longitude": 4.4970
  },

  {
    "id": 25,
    "name": "Warsaw",
    "countryIso2": "PL",
    "latitude": 52.2297,
    "longitude": 21.0122
  },
  {
    "id": 26,
    "name": "Krak?w",
    "countryIso2": "PL",
    "latitude": 50.0647,
    "longitude": 19.9450
  },
  {
    "id": 27,
    "name": "Gda?sk",
    "countryIso2": "PL",
    "latitude": 54.3520,
    "longitude": 18.6466
  },
  {
    "id": 28,
    "name": "Wroc?aw",
    "countryIso2": "PL",
    "latitude": 51.1079,
    "longitude": 17.0385
  },

  {
    "id": 29,
    "name": "Prague",
    "countryIso2": "CZ",
    "latitude": 50.0755,
    "longitude": 14.4378
  },
  {
    "id": 30,
    "name": "Brno",
    "countryIso2": "CZ",
    "latitude": 49.1951,
    "longitude": 16.6068
  },
  {
    "id": 31,
    "name": "Olomouc",
    "countryIso2": "CZ",
    "latitude": 49.5938,
    "longitude": 17.2509
  },
  {
    "id": 32,
    "name": "Plze?",
    "countryIso2": "CZ",
    "latitude": 49.7384,
    "longitude": 13.3736
  },

  {
    "id": 33,
    "name": "Stockholm",
    "countryIso2": "SE",
    "latitude": 59.3293,
    "longitude": 18.0686
  },
  {
    "id": 34,
    "name": "Gothenburg",
    "countryIso2": "SE",
    "latitude": 57.7089,
    "longitude": 11.9746
  },
  {
    "id": 35,
    "name": "Lund",
    "countryIso2": "SE",
    "latitude": 55.7047,
    "longitude": 13.1910
  },
  {
    "id": 36,
    "name": "Uppsala",
    "countryIso2": "SE",
    "latitude": 59.8586,
    "longitude": 17.6389
  },

  {
    "id": 37,
    "name": "Athens",
    "countryIso2": "GR",
    "latitude": 37.9838,
    "longitude": 23.7275
  },
  {
    "id": 38,
    "name": "Thessaloniki",
    "countryIso2": "GR",
    "latitude": 40.6401,
    "longitude": 22.9444
  },
  {
    "id": 39,
    "name": "Patras",
    "countryIso2": "GR",
    "latitude": 38.2466,
    "longitude": 21.7346
  },
  {
    "id": 40,
    "name": "Heraklion",
    "countryIso2": "GR",
    "latitude": 35.3387,
    "longitude": 25.1442
  }
]